City_ID,City,Lat,Lng,Max Temp,Humidity,Cloudiness,Wind Speed,Country,Date
0,bredasdorp,-34.5322,20.0403,10.6,79,18,3.16,ZA,1694969351
1,volodarskiy,46.4013,48.5409,14.99,74,100,1.26,RU,1694969351
2,tagta,41.6504,59.9164,21.97,40,0,3.09,TM,1694969351
3,port-aux-francais,-49.35,70.2167,5.48,97,100,13.11,TF,1694969352
4,yellowknife,62.456,-114.3525,13.01,90,100,5.66,CA,1694969352
5,blackmans bay,-43.0167,147.3167,8.07,72,54,3.33,AU,1694969353
6,edinburgh of the seven seas,-37.0676,-12.3116,12.76,83,63,8.36,SH,1694969353
7,grytviken,-54.2811,-36.5092,-0.46,86,92,7.49,GS,1694969353
8,atafu village,-8.5421,-172.5159,28.2,80,17,6.64,TK,1694969354
9,invercargill,-46.4,168.35,7.79,85,91,9.83,NZ,1694969238
10,hamilton,39.1834,-84.5333,24.58,61,100,2.06,US,1694969330
11,albany,42.6001,-73.9662,22.32,60,92,0.45,US,1694969352
12,st. john's,47.5649,-52.7093,25.66,82,75,7.2,CA,1694969355
13,puerto ayora,-0.7393,-90.3518,26.98,91,93,3.13,EC,1694969356
14,cabo san lucas,22.8909,-109.9124,32.56,70,0,2.68,MX,1694969088
15,punta arenas,-53.15,-70.9167,4.06,45,0,5.66,CL,1694969248
16,mammoth lakes,37.6485,-118.9721,17.41,41,0,0.45,US,1694969357
17,port elizabeth,-33.918,25.5701,15.16,65,0,7.72,ZA,1694969187
18,puerto natales,-51.7236,-72.4875,4.58,51,11,2.67,CL,1694969358
19,bilibino,68.0546,166.4372,3.41,69,100,1.31,RU,1694969358
20,bethel,41.3712,-73.414,24.99,54,0,0.89,US,1694969289
21,adamstown,-25.066,-130.1015,19.0,64,99,5.27,PN,1694969359
22,shahrud,36.4182,54.9763,18.56,47,0,5.0,IR,1694969359
23,obubra,6.0752,8.329,23.76,95,99,3.4,NG,1694969360
24,la'ie,21.6477,-157.9253,26.98,76,6,2.68,US,1694969197
25,stanley,54.868,-1.6985,15.99,88,40,3.6,GB,1694969360
26,lihue,21.9789,-159.3672,25.77,78,100,7.2,US,1694969228
27,kingscliff,-28.2667,153.5667,16.89,77,4,3.09,AU,1694969361
28,crane,31.3974,-102.3501,26.17,48,28,2.45,US,1694969361
29,enewetak,11.3474,162.3373,28.88,79,91,6.82,MH,1694969362
30,polyarnyy,69.1989,33.4478,7.99,79,100,2.09,RU,1694969352
31,kolonia town,6.964,158.206,24.0,94,100,0.0,FM,1694969362
32,college,64.8569,-147.8028,7.99,86,100,3.09,US,1694969153
33,ilulissat,69.2167,-51.1,3.01,81,75,1.03,GL,1694969363
34,villa gesell,-37.2639,-56.973,13.92,56,100,6.41,AR,1694969110
35,kingston,17.997,-76.7936,32.53,72,20,2.57,JM,1694969191
36,marquette,46.5333,-87.6335,13.21,93,98,1.79,US,1694969364
37,ponta delgada,37.7333,-25.6667,23.44,60,40,6.69,PT,1694969365
38,constantia,44.1833,28.65,20.39,60,99,4.81,RO,1694969365
39,troy,42.6056,-83.1499,22.53,68,75,2.06,US,1694969365
40,kavieng,-2.5744,150.7967,26.68,77,11,4.76,PG,1694969366
41,waitangi,-43.9535,-176.5597,9.34,92,78,7.15,NZ,1694969366
42,al bardiyah,31.7561,25.0865,26.34,69,3,5.93,LY,1694969232
43,nar'yan-mar,67.6713,53.087,4.83,80,10,3.28,RU,1694969367
44,zhaqsy,51.9083,67.3133,14.4,60,98,0.62,KZ,1694969367
45,longyearbyen,78.2186,15.6401,-2.09,93,100,5.14,SJ,1694969113
46,qingquan,30.4511,115.2559,24.28,86,85,2.11,CN,1694969368
47,taro,-8.3862,115.28,21.03,92,62,0.93,ID,1694969369
48,kapa'a,22.0752,-159.319,26.18,78,100,7.2,US,1694969369
49,vorgashor,67.5833,63.95,4.6,75,100,4.19,RU,1694969226
50,olonkinbyen,70.9221,-8.7187,3.05,75,63,8.84,SJ,1694969163
51,sitka,57.0531,-135.33,12.94,76,100,11.32,US,1694969370
52,talnakh,69.4865,88.3972,4.56,74,100,4.31,RU,1694969371
53,ushuaia,-54.8,-68.3,1.81,80,75,7.72,AR,1694969371
54,margate,51.3813,1.3862,21.84,83,94,1.34,GB,1694969371
55,sandnessjoen,66.0217,12.6316,10.29,71,75,3.6,NO,1694969372
56,miles city,46.4083,-105.8406,21.54,37,0,5.14,US,1694969372
57,badger,64.8,-147.5333,7.95,86,100,3.09,US,1694969075
58,anuradhapura,8.3565,80.4173,26.51,73,100,4.66,LK,1694969373
59,ulan bator,47.9077,106.8832,8.07,76,75,2.0,MN,1694969195
60,avarua,-21.2078,-159.775,21.03,83,75,1.54,CK,1694969374
61,port mathurin,-19.6833,63.4167,22.93,78,44,10.3,MU,1694969374
62,fort bragg,35.139,-79.006,26.01,66,100,4.12,US,1694969374
63,iskateley,67.6803,53.1512,4.77,80,10,3.3,RU,1694969375
64,bucyrus,40.8084,-82.9755,22.62,63,43,2.35,US,1694969375
65,gadzhiyevo,69.2551,33.3362,7.58,80,100,2.25,RU,1694969375
66,minas de marcona,-15.2119,-75.1103,19.51,60,75,4.64,PE,1694969376
67,lompoc,34.6391,-120.4579,20.9,76,100,3.13,US,1694969376
68,iqaluit,63.7506,-68.5145,1.85,64,75,3.6,CA,1694969377
69,arraial do cabo,-22.9661,-42.0278,29.98,58,0,7.2,BR,1694969377
70,tiksi,71.6872,128.8694,-0.54,89,99,4.0,RU,1694969377
71,happy valley-goose bay,53.3168,-60.3315,12.17,94,100,9.26,CA,1694969378
72,bel ombre,-4.6167,55.4167,26.91,89,20,6.69,SC,1694969378
73,mil'kovo,55.6078,37.7956,14.63,61,66,3.09,RU,1694969379
74,palmer,42.1584,-72.3287,24.23,56,7,0.89,US,1694969261
75,jacmel,18.2342,-72.5347,32.91,65,77,3.25,HT,1694969379
76,haimen,23.1935,116.6142,25.94,88,4,1.4,CN,1694969380
77,amga,60.8953,131.9608,-0.89,80,91,1.73,RU,1694969380
78,motueka,-41.1333,173.0167,12.28,66,1,3.4,NZ,1694969381
79,celestun,20.8667,-90.4,31.05,62,0,2.06,MX,1694969381
80,papatowai,-46.5619,169.4708,7.21,87,98,12.18,NZ,1694969381
81,la sarre,48.8002,-79.1996,15.7,76,100,3.59,CA,1694969382
82,isafjordur,66.0755,-23.124,10.02,62,75,4.12,IS,1694969383
83,wailua homesteads,22.0669,-159.378,25.44,79,100,7.2,US,1694969383
84,onguday,50.75,86.15,6.52,91,83,0.5,RU,1694969384
85,port lincoln,-34.7333,135.8667,14.31,83,97,4.51,AU,1694969384
86,calintaan,12.5667,120.9333,26.21,84,100,1.49,PH,1694969385
87,jiangyou,31.7667,104.7167,22.34,87,100,1.52,CN,1694969385
88,fortaleza,-3.7227,-38.5247,32.07,43,20,8.75,BR,1694969173
89,keflavik,64.0049,-22.5624,10.24,66,75,6.17,IS,1694969386
90,saipan,15.1355,145.701,27.39,94,0,2.57,MP,1694969168
91,haiku-pauwela,20.9219,-156.3051,24.47,86,0,4.12,US,1694969386
92,ruswil,47.0843,8.1265,23.94,70,20,0.0,CH,1694969387
93,hawaiian paradise park,19.5933,-154.9731,21.73,97,100,2.06,US,1694969387
94,whitehorse,60.7161,-135.0538,8.78,69,75,5.66,CA,1694969387
95,vilhena,-12.7406,-60.1458,31.12,51,40,2.06,BR,1694969388
96,aasiaat,68.7098,-52.8699,2.19,78,84,0.6,GL,1694969388
97,georgetown,5.4112,100.3354,28.3,92,20,2.68,MY,1694969317
98,udachny,66.4167,112.4,-4.99,94,48,2.41,RU,1694969389
99,ornskoldsvik,63.2909,18.7153,12.53,50,0,3.09,SE,1694969389
100,nemuro,43.3236,145.575,18.28,97,100,5.92,JP,1694969305
101,lascano,-33.6667,-54.2,19.57,78,64,6.04,UY,1694969390
102,morden,49.1919,-98.1014,17.92,59,0,3.09,CA,1694969177
103,ta`u,-14.2336,-169.5144,26.63,83,86,8.63,AS,1694969391
104,igarka,67.4667,86.5833,4.97,72,100,3.27,RU,1694969392
105,tambura,5.6,27.4667,22.65,84,71,2.35,SS,1694969392
106,mersrags,57.3354,23.1246,14.28,83,85,5.7,LV,1694969392
107,aydarken,39.9443,71.3429,15.22,53,77,0.68,KG,1694969393
108,saint-pierre,-21.3393,55.4781,22.82,73,75,1.03,RE,1694969393
109,urangan,-25.3,152.9,18.94,75,3,3.01,AU,1694969393
110,conception bay south,47.4999,-52.9981,25.53,80,73,7.55,CA,1694969394
111,gunnison,38.7,-107.0673,13.66,30,6,1.6,US,1694969394
112,dryden,49.7833,-92.7503,13.16,67,40,2.06,CA,1694969266
113,cockburn town,21.4612,-71.1419,30.98,66,40,3.09,TC,1694969126
114,malango,-2.9627,119.9001,19.49,98,80,0.37,ID,1694969396
115,kuraymah,18.55,31.85,37.44,13,3,4.44,SD,1694969396
116,margaret river,-33.95,115.0667,13.32,64,86,5.11,AU,1694969396
117,natal,-5.795,-35.2094,30.12,66,40,7.72,BR,1694969013
118,barcelos,41.5388,-8.6151,20.47,87,100,5.22,PT,1694969397
119,ribeira grande,38.5167,-28.7,22.65,53,20,4.92,PT,1694969398
120,papao,-17.75,-149.55,23.82,84,11,4.68,PF,1694969398
121,fort mcmurray,56.7268,-111.381,13.77,71,0,3.6,CA,1694969116
122,puerto baquerizo moreno,-0.9,-89.6,25.55,83,100,4.63,EC,1694969399
123,kidal,18.4411,1.4078,39.29,16,40,3.97,ML,1694969399
124,bulungu,-4.55,18.6,27.57,64,98,0.92,CD,1694969399
125,bousso,10.4795,16.7117,26.08,82,58,2.82,TD,1694969400
126,thinadhoo,0.5333,72.9333,27.91,79,12,6.58,MV,1694969400
127,inari,68.906,27.0288,5.11,92,99,1.76,FI,1694969401
128,curuca,-0.7289,-47.8481,33.52,47,5,5.86,BR,1694969140
129,slave lake,55.2834,-114.769,13.99,72,0,5.14,CA,1694969402
130,codrington,-38.2667,141.9667,10.83,96,100,2.6,AU,1694969402
131,nova sintra,14.8667,-24.7167,22.64,73,20,5.45,CV,1694969402
132,punxsutawney,40.9437,-78.9709,20.12,76,100,0.89,US,1694969403
133,flying fish cove,-10.4217,105.6791,23.82,83,75,5.14,CX,1694969403
134,lebu,-37.6167,-73.65,10.48,58,5,3.95,CL,1694969297
135,mermoz boabab,14.7065,-17.4758,30.88,74,40,5.14,SN,1694969404
136,thanh hoa,19.8,105.7667,25.04,95,100,1.29,VN,1694969405
137,la passe,45.5549,-0.8967,22.13,88,100,3.87,FR,1694969138
138,archangelos,36.2149,28.1149,26.28,67,51,3.88,GR,1694969405
139,katima mulilo,-17.5,24.2667,29.15,12,0,2.73,NA,1694969406
140,praia da vitoria,38.7333,-27.0667,22.14,64,40,6.31,PT,1694969406
141,ola,59.5833,151.2833,6.19,77,50,4.07,RU,1694969407
142,la libertad,-2.2333,-80.9,27.81,74,40,6.17,EC,1694969164
143,kalmunai,7.4167,81.8167,26.52,79,99,7.1,LK,1694969408
144,kudahuvadhoo,2.6708,72.8944,28.42,77,75,6.16,MV,1694969408
145,hoi an,15.8794,108.335,24.98,86,100,1.77,VN,1694969408
146,sal rei,16.1833,-22.9167,29.11,58,40,6.69,CV,1694969409
147,west island,-12.1568,96.8225,24.99,83,100,7.72,CC,1694969409
148,yanykurgan,43.915,67.2481,20.96,25,88,5.03,KZ,1694969409
149,puyang chengguanzhen,35.7028,115.0053,24.06,71,93,4.01,CN,1694969410
150,hantsavichy,52.758,26.43,16.91,70,0,2.89,BY,1694969411
151,kerikeri,-35.2268,173.9474,10.51,91,6,0.89,NZ,1694969135
152,queenstown,-31.8976,26.8753,10.68,38,0,2.42,ZA,1694969411
153,tobelo,1.7284,128.0095,25.87,84,100,2.69,ID,1694969412
154,fortuna,40.5982,-124.1573,14.19,98,100,0.0,US,1694969412
155,maragogi,-9.0122,-35.2225,27.01,67,17,5.77,BR,1694969180
156,christchurch,-43.5333,172.6333,12.17,53,1,5.66,NZ,1694969395
157,argo,37.6333,22.7333,26.55,49,60,2.2,GR,1694969413
158,greenville,35.6127,-77.3663,28.41,51,0,2.57,US,1694969413
159,kangding,30.0513,101.9603,15.6,98,98,1.11,CN,1694969414
160,sinabang,2.4803,96.3801,26.16,82,100,1.34,ID,1694969414
161,fale old settlement,-9.3852,-171.2468,28.13,80,81,7.47,TK,1694969414
162,kayangel,8.0823,134.7173,27.79,75,97,2.26,PW,1694969415
163,falkenberg,56.9055,12.4912,21.08,81,58,1.98,SE,1694969415
164,east london,-33.0153,27.9116,16.47,63,2,8.1,ZA,1694969416
165,diu,20.7141,70.9822,27.33,85,100,5.61,IN,1694969416
166,thompson,55.7435,-97.8558,14.09,82,75,4.12,CA,1694969416
167,zhanibek,49.4167,46.85,19.73,48,100,3.21,KZ,1694969417
168,smithers,54.7804,-127.1743,10.18,71,75,2.06,CA,1694969417
169,lata,40.1629,-8.3327,19.4,84,99,3.6,PT,1694969162
170,russkaya polyana,49.417,31.9201,17.59,49,0,3.67,UA,1694969418
171,ulsteinvik,62.3432,5.8487,14.5,72,79,0.45,NO,1694969418
172,port alfred,-33.5906,26.891,13.99,74,10,1.34,ZA,1694969173
173,kone,-21.0595,164.8658,18.73,92,10,2.12,NC,1694969419
174,tralee,52.2704,-9.7026,16.14,94,100,2.06,IE,1694969354
175,simanggang,1.2472,111.4528,25.99,94,98,0.0,MY,1694969420
176,mont-dore,-22.2833,166.5833,21.11,99,80,3.85,NC,1694969417
177,belomorsk,64.5232,34.7668,11.59,91,100,3.31,RU,1694969420
178,afaahiti,-17.75,-149.2833,22.93,88,52,5.8,PF,1694969421
179,fisterra,42.9049,-9.2629,19.45,84,98,11.68,ES,1694969421
180,norton shores,43.1689,-86.2639,18.29,81,75,4.12,US,1694969421
181,vilyuchinsk,52.9306,158.4028,9.15,85,29,4.94,RU,1694969422
182,hailar,49.2,119.7,10.84,80,97,1.68,CN,1694969422
183,albacete,38.8333,-2.0,19.45,73,40,6.17,ES,1694969162
184,nadi,-17.8,177.4167,24.0,94,20,1.54,FJ,1694969423
185,arkhangel'sk,64.5401,40.5433,11.61,85,100,4.41,RU,1694969423
186,gamba,-2.65,10.0,24.34,82,94,3.72,GA,1694969424
187,xilin hot,43.9667,116.0333,11.67,82,59,2.88,CN,1694969424
188,pandan,14.0453,124.1694,27.29,83,82,2.15,PH,1694969424
189,port blair,11.6667,92.75,26.02,90,100,6.86,IN,1694969425
190,al qanatir al khayriyah,30.1933,31.137,32.45,35,0,6.85,EG,1694969425
191,luanda,-8.8368,13.2343,24.0,78,20,4.63,AO,1694969195
192,boali,4.8005,18.1275,21.87,98,99,1.14,CF,1694969426
193,loudun,47.0079,0.083,19.1,84,100,5.08,FR,1694969426
194,tucuma,-0.1833,-50.05,33.12,49,12,5.2,BR,1694969427
195,al 'aziziyah,32.9058,45.0616,34.69,14,0,3.83,IQ,1694969427
196,mount pearl,47.5166,-52.7813,25.19,81,75,7.2,CA,1694969428
197,chu,43.5983,73.7614,19.67,29,34,6.47,KZ,1694969428
198,muroto-misakicho,33.2833,134.15,26.81,80,3,1.46,JP,1694969187
199,vilyuysk,63.7553,121.6247,0.62,98,100,5.08,RU,1694969429
200,klyuchi,52.2667,79.1667,14.3,70,54,1.96,RU,1694969429
201,boende,-0.2167,20.8667,23.56,83,100,1.67,CD,1694969429
202,nadym,65.5333,72.5167,11.23,92,88,4.88,RU,1694969430
203,shakawe,-18.3667,21.85,28.13,11,0,2.32,BW,1694969430
204,carbonear,47.7332,-53.2148,25.91,78,75,6.85,CA,1694969431
205,haenam,34.5711,126.5989,22.45,90,0,1.32,KR,1694969431
206,daru,-9.0763,143.2092,23.62,78,10,6.11,PG,1694969432
207,kijang,35.2442,129.2139,21.85,89,100,1.16,KR,1694969432
208,new norfolk,-42.7826,147.0587,8.72,88,62,2.03,AU,1694969205
209,lepsy,46.235,78.9456,17.11,43,16,5.96,KZ,1694969433
210,pangody,65.85,74.4859,11.26,92,94,6.2,RU,1694969421
211,spring creek,40.7266,-115.5859,20.17,19,1,1.24,US,1694969433
212,el ejido,36.7763,-2.8146,26.53,70,100,8.87,ES,1694969434
213,kaspiyskiy,45.3929,47.3707,15.75,80,100,5.94,RU,1694969434
214,beyneu,45.3167,55.2,22.12,39,98,3.85,KZ,1694969434
215,pasni,25.2631,63.471,26.83,87,76,5.59,PK,1694969435
216,vila velha,-20.3297,-40.2925,26.97,77,40,7.72,BR,1694969435
217,nagqu,31.5,92.0,3.06,96,95,2.36,CN,1694969436
218,cururupu,-1.8283,-44.8683,32.24,50,46,3.91,BR,1694969436
219,dwarka,22.2394,68.9678,27.75,83,100,6.96,IN,1694969437
220,kodiak,57.79,-152.4072,8.73,57,0,14.4,US,1694969437
221,khadyzhensk,44.4256,39.5319,16.85,56,0,5.01,RU,1694969437
222,sandpoint,48.2766,-116.5533,21.12,48,100,0.45,US,1694969223
223,pontianak,-0.0333,109.3333,23.99,94,20,1.03,ID,1694969223
224,howard springs,-12.497,131.047,23.26,76,34,3.45,AU,1694969439
225,yermentau,51.6214,73.1069,13.31,66,81,1.51,KZ,1694969439
226,as sulayyil,20.4607,45.5779,38.14,10,36,4.01,SA,1694969440
227,alenquer,-1.9417,-54.7383,37.67,30,9,4.44,BR,1694969440
228,niamey,13.5137,2.1098,33.16,55,20,3.09,NE,1694969440
229,ancud,-41.8697,-73.8203,7.7,72,67,1.33,CL,1694969441
230,ruma,45.0081,19.8222,26.44,55,57,5.71,RS,1694969441
231,mountain home,43.133,-115.6912,25.08,27,0,5.66,US,1694969320
232,el calafate,-50.3408,-72.2768,1.25,66,12,1.94,AR,1694969442
233,mabaruma,8.2,-59.7833,35.07,44,64,3.73,GY,1694969443
234,bodo,67.28,14.405,9.02,88,75,1.54,NO,1694969443
235,faya-largeau,17.9257,19.1043,35.85,10,0,4.84,TD,1694969443
236,avanigadda,16.0215,80.9181,28.86,76,87,1.78,IN,1694969444
237,xinmin,41.9908,122.8253,17.91,94,73,3.98,CN,1694969444
238,vila franca do campo,37.7167,-25.4333,22.71,99,96,5.32,PT,1694969444
239,tazacorte,28.629,-17.9293,24.54,76,40,5.14,ES,1694969445
240,weatherford,32.7593,-97.7972,29.05,53,0,2.24,US,1694969445
241,hasaki,35.7333,140.8333,26.27,88,14,7.07,JP,1694969446
242,luderitz,-26.6481,15.1594,17.18,53,0,10.26,NA,1694969242
243,kavaratti,10.5669,72.642,27.72,80,58,4.07,IN,1694969446
244,fortuna foothills,32.6578,-114.4119,33.45,31,0,1.34,US,1694969447
245,jamestown,42.097,-79.2353,21.12,59,0,2.57,US,1694969333
246,urrugne,43.3636,-1.6992,27.49,62,40,3.09,FR,1694969448
247,beebe,35.0706,-91.8796,30.54,42,0,4.21,US,1694969448
248,utrik,11.2278,169.8474,28.66,80,100,9.11,MH,1694969449
249,juan griego,11.0817,-63.9655,36.07,49,29,6.17,VE,1694969449
250,alice town,25.7167,-79.3,29.24,69,84,3.59,BS,1694969449
251,makushino,55.2103,67.2442,13.66,66,64,0.28,RU,1694969450
252,hermanus,-34.4187,19.2345,12.67,75,3,2.57,ZA,1694969450
253,zemio,5.0314,25.1361,20.17,99,100,1.44,CF,1694969451
254,newman,37.3138,-121.0208,20.64,75,23,0.89,US,1694969451
255,portland,45.5234,-122.6762,18.3,69,75,3.09,US,1694969311
256,sretensk,52.2453,117.7093,8.68,97,100,1.31,RU,1694969452
257,praia,14.9215,-23.5087,29.3,61,20,5.66,CV,1694969452
258,santa vitoria do palmar,-33.5189,-53.3681,17.74,83,66,4.58,BR,1694969178
259,nabire,-3.3667,135.4833,24.91,88,100,1.68,ID,1694969453
260,januaria,-15.4833,-44.3667,36.26,23,55,3.47,BR,1694969453
261,chibougamau,49.9168,-74.3659,18.79,63,40,2.57,CA,1694969454
262,lagos,6.5833,3.75,26.39,82,83,3.39,NG,1694969232
263,mana,5.6592,-53.7767,31.57,61,74,5.61,GF,1694969454
264,ceeldheer,3.8488,47.1806,25.51,77,84,9.58,SO,1694969455
265,oberstdorf,47.4,10.2833,22.03,71,100,0.45,DE,1694969455
266,birzai,56.2,24.75,15.83,71,41,1.12,LT,1694969455
267,mushie,-3.0167,16.9,26.33,73,100,2.89,CD,1694969456
268,greymouth,-42.4667,171.2,9.82,83,57,10.08,NZ,1694969376
269,zalingei,12.9096,23.4741,27.9,43,83,3.11,SD,1694969457
270,anadyr,64.75,177.4833,-0.72,93,20,3.0,RU,1694969457
271,touros,-5.1989,-35.4608,28.97,58,19,8.82,BR,1694969297
272,tsiombe,-25.3,45.4833,21.98,84,0,2.67,MG,1694969458
273,borkum,53.5809,6.6915,21.64,85,70,0.72,DE,1694969458
274,talcahuano,-36.7167,-73.1167,11.82,58,20,5.66,CL,1694969458
275,redencao,-4.2258,-38.7306,37.29,24,2,4.4,BR,1694969459
276,geraldton,-28.7667,114.6,11.23,82,0,4.12,AU,1694969459
277,ko pha ngan,9.7578,100.0291,25.7,76,100,3.43,TH,1694969459
278,yanchep,-31.55,115.6833,11.45,78,0,3.24,AU,1694969460
279,vodnyy,63.5046,53.4095,9.34,96,100,1.6,RU,1694969460
280,kailua-kona,19.6406,-155.9956,24.98,78,20,2.24,US,1694969461
281,shihezi,44.3,86.0333,17.28,45,42,1.67,CN,1694969461
282,alupka,44.4167,34.05,19.69,62,0,4.34,UA,1694969461
283,tolanaro,-25.0319,46.9987,25.04,69,0,4.12,MG,1694969462
284,kupang,-10.1667,123.5833,25.32,78,14,3.6,ID,1694969462
285,san jacinto,33.7839,-116.9586,30.05,85,64,0.89,US,1694969303
286,carutapera,-1.195,-46.02,31.75,53,33,5.53,BR,1694969463
287,najafabad,32.6344,51.3668,25.3,21,0,3.85,IR,1694969463
288,erenhot,43.6475,111.9767,15.5,55,52,1.46,CN,1694969464
289,kaa-khem,51.6833,94.7333,10.01,80,74,1.01,RU,1694969464
290,mejit,10.2753,170.8646,28.41,81,100,9.15,MH,1694969465
291,holualoa,19.6228,-155.9522,22.91,80,20,2.24,US,1694969465
292,weno,7.4515,151.8468,25.97,89,40,1.54,FM,1694969466
293,laguna,38.421,-121.4238,21.19,73,0,5.14,US,1694969188
294,malvan,16.0667,73.4667,26.33,88,40,3.21,IN,1694969467
295,okha,53.5739,142.9478,6.53,67,39,2.5,RU,1694969278
296,suoyarvi,62.0833,32.35,9.16,93,100,5.92,RU,1694969467
297,bairnsdale,-37.8333,147.6167,9.47,92,16,1.77,AU,1694969468
298,sidi bel abbes,35.1899,-0.6309,24.62,73,95,6.2,DZ,1694969468
299,woolgoolga,-30.1106,153.2007,13.93,76,0,3.34,AU,1694969469
300,dawesville,30.9224,-84.0091,29.82,80,0,3.09,US,1694969469
301,mount isa,-20.7333,139.5,13.87,44,0,2.57,AU,1694969470
302,abilene,32.4487,-99.7331,27.88,53,0,2.57,US,1694969470
303,carnarvon,-24.8667,113.6333,18.81,78,89,12.03,AU,1694969470
304,khandyga,62.6667,135.6,1.91,97,100,2.22,RU,1694969471
305,peniche,39.3558,-9.3811,21.71,82,84,5.66,PT,1694969471
306,yuzhno-kurilsk,44.0306,145.8556,17.69,99,100,3.42,RU,1694969471
307,pundong,-7.9522,110.3486,22.55,94,24,0.96,ID,1694969472
308,tadine,-21.55,167.8833,20.7,87,60,6.94,NC,1694969472
309,emerald,-23.5333,148.1667,14.08,70,0,2.44,AU,1694969473
310,hobyo,5.3505,48.5268,25.41,82,98,11.83,SO,1694969420
311,qamdo,31.1667,97.2333,4.88,90,99,1.47,CN,1694969438
312,alexandria,31.2156,29.9553,27.3,69,0,6.17,EG,1694969443
313,baissa,7.2333,10.6333,23.93,94,99,0.24,NG,1694969474
314,ambovombe,-25.1667,46.0833,21.5,83,0,3.26,MG,1694969475
315,floro,61.5996,5.0328,17.04,67,77,0.0,NO,1694969475
316,irymple,-34.25,142.1667,20.61,36,76,0.45,AU,1694969475
317,namibe,-15.1961,12.1522,19.61,87,61,3.71,AO,1694969476
318,ust-nera,64.5667,143.2,1.36,83,92,1.63,RU,1694969476
319,broome,42.2506,-75.833,17.6,81,0,0.45,US,1694969414
320,soio,-6.1349,12.3689,24.31,82,95,2.94,AO,1694969477
321,harnosand,62.6323,17.9379,13.0,58,16,2.42,SE,1694969477
322,florence,43.7667,11.25,30.82,48,0,1.03,IT,1694969478
323,pago pago,-14.2781,-170.7025,26.55,89,75,6.17,AS,1694969479
324,mims,28.6653,-80.8448,34.51,67,0,3.09,US,1694969479
325,myrina,39.8797,25.0742,24.58,65,20,3.6,GR,1694969479
326,labrador city,52.9463,-66.9114,12.95,82,100,4.63,CA,1694969480
327,guerrero negro,27.9769,-114.0611,22.1,66,56,7.24,MX,1694969480
328,de aar,-30.6497,24.0123,14.84,23,1,4.79,ZA,1694969481
329,liuhe,42.2401,125.7172,16.31,93,24,2.56,CN,1694969481
330,chui,-33.6971,-53.4616,18.17,82,62,5.18,UY,1694969482
331,nazarovo,56.0064,90.3914,10.77,82,13,0.4,RU,1694969482
332,saint-philippe,-21.3585,55.7679,22.77,80,36,5.22,RE,1694969482
333,jiaojiang,28.6803,121.4428,23.7,94,5,1.06,CN,1694969483
334,balaipungut,1.05,101.2833,25.68,82,95,0.55,ID,1694969483
335,uturoa,-16.7333,-151.4333,25.64,81,7,4.17,PF,1694969483
336,qaqortoq,60.7167,-46.0333,4.73,42,0,1.25,GL,1694969484
337,villanueva,15.3167,-88.0,31.55,66,20,1.03,HN,1694969484
338,isokyro,63.0117,22.3333,13.2,77,38,2.0,FI,1694969485
339,strezhevoy,60.7333,77.5889,14.42,67,32,2.68,RU,1694969485
340,piti village,13.4626,144.6933,27.49,93,75,2.06,GU,1694969486
341,spas-klepiki,55.1347,40.1767,12.04,63,25,1.83,RU,1694969486
342,torghay,49.6339,63.4981,17.04,52,99,1.91,KZ,1694969486
343,cidreira,-30.1811,-50.2056,23.45,65,0,3.22,BR,1694969487
344,takoradi,4.8845,-1.7554,25.5,84,100,4.57,GH,1694969487
345,alesund,62.4723,6.1549,14.51,69,0,4.12,NO,1694969488
346,watford city,47.8022,-103.2832,23.03,35,0,3.6,US,1694969488
347,puerto rosario,-24.45,-57.0833,40.43,19,0,5.99,PY,1694969489
348,xunchang,28.4543,104.715,24.93,82,93,0.88,CN,1694969489
349,ban huai thalaeng,14.9833,102.65,24.76,89,100,1.93,TH,1694969489
350,bitkine,11.9801,18.2138,29.05,61,55,3.74,TD,1694969490
351,murun-kuren,49.6342,100.1625,7.43,79,93,0.85,MN,1694969490
352,port-gentil,-0.7193,8.7815,26.98,78,75,5.66,GA,1694969491
353,pariaman,-0.619,100.12,24.03,87,75,2.03,ID,1694969491
354,bezopasnoye,45.6483,41.936,17.06,52,97,2.15,RU,1694969491
355,lakatoro,-16.0999,167.4164,23.75,84,31,4.52,VU,1694969492
356,kapuskasing,49.4169,-82.4331,11.0,93,100,4.63,CA,1694969245
357,asekeyevo,53.5742,52.7972,14.85,76,34,2.13,RU,1694969493
358,miri,4.4148,114.0089,27.08,94,40,1.03,MY,1694969493
359,fada,9.5667,8.3,22.38,92,88,0.47,NG,1694969406
360,tobol'sk,58.2,68.2667,13.66,68,52,2.59,RU,1694969494
361,zmeinogorsk,51.1567,82.195,10.95,87,71,1.27,RU,1694969494
362,sao miguel do araguaia,-13.275,-50.1628,39.22,18,7,6.12,BR,1694969495
363,nizao,18.25,-70.2,33.59,63,94,4.81,DO,1694969495
364,el nido,11.1858,119.3956,27.22,83,100,2.01,PH,1694969495
365,al qubbah,32.7616,22.2424,21.03,65,89,7.98,LY,1694969496
366,dili,-8.5586,125.5736,24.28,74,22,1.98,TL,1694969496
367,kudamatsu,34.0,131.8667,27.98,95,10,1.43,JP,1694969497
368,kill devil hills,36.0307,-75.676,27.21,48,0,5.14,US,1694969480
369,sebis,46.3667,22.1167,19.01,85,16,1.38,RO,1694969497
370,laurel,39.0993,-76.8483,24.21,87,75,2.06,US,1694969431
371,kvissleby,62.2936,17.375,12.91,62,14,1.95,SE,1694969498
372,palikir - national government center,6.9248,158.1611,23.41,94,100,0.0,FM,1694969498
373,alice springs,-23.7,133.8833,14.75,26,0,0.0,AU,1694969492
374,manvi,15.9833,77.05,26.87,62,56,6.75,IN,1694969499
375,yelovo,57.0538,54.9207,13.46,71,13,1.94,RU,1694969499
376,champagnole,46.7445,5.9135,26.76,53,52,1.78,FR,1694969500
377,deqen,29.9618,90.7188,9.74,80,91,1.54,CN,1694969500
378,colonia,50.9333,6.95,27.76,55,20,1.54,DE,1694969501
379,rabaul,-4.1967,152.1721,25.3,73,39,7.53,PG,1694969501
380,coronel dorrego,-38.7187,-61.2873,15.45,23,100,5.53,AR,1694969501
381,hola,51.5377,23.1902,24.1,56,95,3.16,PL,1694969502
382,healesville,-37.65,145.5167,14.78,91,60,0.45,AU,1694969502
383,port douglas,-16.4833,145.4667,21.63,83,88,6.59,AU,1694969502
384,laporte,41.6106,-86.7225,18.72,96,100,2.06,US,1694969446
385,arno,60.1167,18.6333,12.66,61,77,2.35,SE,1694969503
386,duck lake,52.8168,-106.2344,23.83,22,2,4.86,CA,1694969503
387,tomigusuku,26.185,127.675,27.3,91,75,3.09,JP,1694969504
388,mingshui,36.7167,117.5,26.97,66,96,3.97,CN,1694969504
389,harnoli,32.2792,71.5539,33.39,44,1,6.32,PK,1694969505
390,hailin,44.5833,129.4167,14.51,96,4,1.52,CN,1694969505
391,ciudad altamirano,18.3167,-100.65,28.03,76,93,0.67,MX,1694969505
392,nurota,40.5614,65.6886,20.4,25,0,3.29,UZ,1694969506
393,aver-o-mar,41.4078,-8.7812,20.69,88,75,6.17,PT,1694969506
394,ilebo,-4.3167,20.5833,26.98,69,99,0.45,CD,1694969506
395,bardai,11.65,7.2333,27.2,69,88,3.02,NG,1694969507
396,masuguru,-11.3667,38.4167,30.53,34,9,3.43,TZ,1694969507
397,jayapura,-2.5333,140.7,25.66,94,77,1.93,ID,1694969508
398,sampit,-2.5333,112.95,24.21,96,99,1.12,ID,1694969508
399,prado,-17.3411,-39.2208,26.42,63,17,4.12,BR,1694969508
400,shalqar,47.8333,59.6,14.99,78,100,1.19,KZ,1694969509
401,camana,-16.6228,-72.7111,20.28,73,69,3.52,PE,1694969509
402,qarqaraly,49.4058,75.4742,12.25,65,100,2.1,KZ,1694969509
403,naze,28.3667,129.4833,26.51,83,93,3.39,JP,1694969510
404,tazovsky,67.4667,78.7,7.37,81,100,8.38,RU,1694969510
405,gowurdak,37.8124,66.0466,24.61,22,0,4.02,TM,1694969511
406,vera,-29.4593,-60.2126,35.72,29,27,6.31,AR,1694969511
407,gunjur,13.2019,-16.7339,34.04,55,75,2.57,GM,1694969512
408,katav-ivanovsk,54.7531,58.1956,10.29,89,44,1.21,RU,1694969512
409,zheleznogorsk-ilimskiy,56.5768,104.1217,9.26,87,80,0.83,RU,1694969512
410,nalut,30.3333,10.85,32.74,15,0,3.8,LY,1694969513
411,kuruman,-27.4524,23.4325,18.33,15,1,1.66,ZA,1694969513
412,turaif,31.6725,38.6637,31.14,13,0,4.12,SA,1694969513
413,slawharad,53.4446,31.0014,14.56,72,5,2.93,BY,1694969514
414,antofagasta,-23.65,-70.4,19.6,70,12,3.7,CL,1694969514
415,san antonio de pale,-1.4014,5.6325,24.47,79,83,4.08,GQ,1694969514
416,kruisfontein,-34.0033,24.7314,13.27,77,3,2.83,ZA,1694969515
417,lodwar,3.1191,35.5973,33.64,29,47,3.16,KE,1694969515
418,usogorsk,63.4106,48.6872,9.65,94,100,2.4,RU,1694969516
419,itoman,26.1247,127.6694,27.43,91,75,3.09,JP,1694969516
420,hiratacho,35.4333,132.8167,25.01,91,6,1.66,JP,1694969516
421,selfoss,63.9331,-20.9971,8.36,79,98,6.19,IS,1694969517
422,spanish wells,26.323,-81.7957,33.88,68,20,5.14,US,1694969517
423,am timan,11.0297,20.2827,26.89,72,43,3.7,TD,1694969517
424,salahonda,2.1019,-78.7217,26.64,82,100,5.42,CO,1694969518
425,bonthe,7.5264,-12.505,27.22,76,99,4.92,SL,1694969518
426,ghorawal,24.7667,82.7833,27.01,78,94,2.17,IN,1694969519
427,umm kaddadah,13.6017,26.6876,35.25,16,41,4.13,SD,1694969519
428,brokopondo,4.75,-55.1667,33.99,41,48,1.08,SR,1694969520
429,neiafu,-18.65,-173.9833,24.38,78,20,3.6,TO,1694969520
430,karratha,-20.7377,116.8463,23.57,68,54,4.93,AU,1694969521
431,devon,50.75,-3.75,18.71,98,82,3.8,GB,1694969521
432,dudinka,69.4058,86.1778,4.79,78,100,4.28,RU,1694969522
433,santo antonio,-6.3106,-35.4789,31.69,41,76,8.9,BR,1694969522
434,hotan,37.0997,79.9269,24.57,20,79,3.37,CN,1694969523
435,hong kong,22.2855,114.1577,29.1,88,11,3.58,HK,1694969373
436,raja,8.4596,25.678,21.76,95,99,2.03,SS,1694969524
437,buinsk,54.95,48.2833,14.55,63,3,2.79,RU,1694969524
438,pisco,-13.7,-76.2167,20.57,73,0,4.63,PE,1694969525
439,lat yao,15.751,99.7893,25.27,90,100,2.98,TH,1694969525
440,okhotsk,59.3833,143.3,5.39,67,5,6.29,RU,1694969526
441,saguenay,48.4168,-71.0657,20.46,62,40,6.17,CA,1694969526
442,richards bay,-28.783,32.0377,17.18,71,100,1.93,ZA,1694969526
443,chonchi,-42.6128,-73.8092,9.51,66,28,2.05,CL,1694969527
444,sitia,35.2,26.0986,26.66,77,96,10.76,GR,1694969527
445,howrah,22.5892,88.3103,31.0,79,20,2.57,IN,1694969528
446,pacific grove,36.6177,-121.9166,20.82,84,20,2.24,US,1694969528
447,hammerfest,70.6634,23.6821,6.25,81,75,6.17,NO,1694969528
448,oriximina,-1.7656,-55.8661,38.2,30,35,3.09,BR,1694969479
449,ad dabbah,18.05,30.95,36.96,13,9,4.41,SD,1694969529
450,okakarara,-20.5833,17.4333,25.53,10,0,2.97,NA,1694969530
451,chengdu,30.6667,104.0667,24.13,83,40,3.0,CN,1694969530
452,swift current,50.2834,-107.8014,22.45,23,0,7.2,CA,1694969530
453,wanning,18.8003,110.3967,26.97,87,100,1.59,CN,1694969531
454,kununurra,-15.7667,128.7333,16.99,77,32,2.06,AU,1694969280
455,savanna-la-mar,18.219,-78.1332,31.97,57,36,2.68,JM,1694969532
456,port saint john's,-31.6229,29.5448,16.91,61,12,3.53,ZA,1694969532
457,berrotaran,-32.451,-64.3887,21.05,26,18,6.35,AR,1694969533
458,north ward,-19.2454,146.8075,18.95,72,21,1.03,AU,1694969533
459,tavda,58.0425,65.2726,12.63,75,78,1.31,RU,1694969534
460,port pirie,-33.1833,138.0167,17.94,44,72,3.23,AU,1694969534
461,paita,-5.0892,-81.1144,24.41,67,92,5.61,PE,1694969535
462,sangmelima,2.9333,11.9833,20.75,98,99,0.55,CM,1694969536
463,bikenibeu village,1.3673,173.1241,26.98,89,75,1.54,KI,1694969537
464,raduzhny,62.0961,77.475,12.25,81,94,3.18,RU,1694969537
465,ha'il,27.5219,41.6907,37.01,12,40,6.17,SA,1694969537
466,yen bai,21.7,104.8667,24.82,96,90,0.39,VN,1694969538
467,charters towers,-20.1,146.2667,13.57,86,0,3.02,AU,1694969538
468,atherton,53.5237,-2.4935,20.12,79,100,0.45,GB,1694969539
469,tura,25.5198,90.2201,24.78,88,37,1.44,IN,1694969540
470,altai,46.3722,96.2583,1.47,91,64,2.2,MN,1694969540
471,santiago del torno,-17.9833,-63.3833,33.42,25,0,7.46,BO,1694969541
472,ugoofaaru,5.6667,73.0,27.58,76,96,4.53,MV,1694969541
473,bilaspur,22.0833,82.15,25.52,83,58,2.24,IN,1694969541
474,tangalle,6.024,80.7911,25.59,88,97,3.33,LK,1694969542
475,gokwe,-18.2048,28.9349,25.75,16,0,1.25,ZW,1694969542
476,martapura,-3.4167,114.85,25.05,100,100,2.06,ID,1694969543
477,northam,51.0333,-4.2167,18.12,96,91,4.33,GB,1694969543
478,sao vicente,-23.9631,-46.3919,36.26,69,0,3.09,BR,1694969543
479,carlow,52.8408,-6.9261,15.55,98,99,1.39,IE,1694969544
480,nieuw amsterdam,5.8833,-55.0833,33.66,51,28,5.08,SR,1694969544
481,la rinconada,37.4873,-5.9826,24.47,54,20,6.69,ES,1694969544
482,katsuren-haebaru,26.3369,127.8719,27.43,98,75,5.14,JP,1694969545
483,remire-montjoly,4.9167,-52.2667,33.02,55,75,4.12,GF,1694969352
484,mandalgovi,45.7625,106.2708,6.16,84,81,6.05,MN,1694969546
485,kwang binh,17.4833,106.6,26.5,90,100,1.2,VN,1694969546
486,sherwood park,53.5168,-113.3187,15.35,66,74,2.57,CA,1694969546
487,san ignacio,17.1561,-89.0714,31.08,70,40,3.09,BZ,1694969421
488,vryburg,-26.9566,24.7284,17.48,15,0,4.1,ZA,1694969547
489,viedma,-40.8135,-62.9967,14.98,32,0,4.49,AR,1694969457
490,bialobrzegi,51.6469,20.9504,22.53,54,92,2.27,PL,1694969548
491,malakal,9.5334,31.6605,26.49,69,27,0.71,SS,1694969548
492,sidirokastro,41.2347,23.3867,25.73,71,85,3.31,GR,1694969549
493,ystad,55.4297,13.8204,19.41,81,79,7.33,SE,1694969549
494,koulikoro,14.0,-7.75,33.67,45,69,2.81,ML,1694969549
495,beipiao,41.7919,120.7792,17.92,92,97,1.62,CN,1694969550
496,belyy yar,53.6039,91.3903,8.94,87,0,0.0,RU,1694969550
497,phang nga,8.4509,98.5298,26.02,90,100,0.65,TH,1694969551
498,knyaze-volkonskoye,48.4642,135.4567,10.19,85,61,1.48,RU,1694969551
499,coruripe,-10.1256,-36.1756,27.19,69,53,6.4,BR,1694969480
500,lerwick,60.1545,-1.1494,14.0,84,67,8.95,GB,1694969552
501,general roca,-39.0333,-67.5833,17.01,28,0,10.56,AR,1694969552
502,moose jaw,50.4001,-105.5344,22.14,28,0,4.12,CA,1694969553
503,luwuk,-0.9516,122.7875,23.71,87,89,2.47,ID,1694969553
504,qorveh,35.1664,47.8045,20.43,16,0,1.74,IR,1694969554
505,punta del este,-34.9667,-54.95,17.2,89,75,5.14,UY,1694969554
506,saint-joseph,-21.3667,55.6167,22.21,78,30,4.53,RE,1694969554
507,buka,40.8108,69.1986,19.8,30,15,1.69,UZ,1694969555
508,tippi,7.2,35.45,18.55,96,38,1.71,ET,1694969555
509,bubaque,11.2833,-15.8333,27.97,74,82,4.07,GW,1694969556
510,nenjiang,49.1833,125.2167,8.9,96,100,1.58,CN,1694969556
511,siwa oasis,29.2041,25.5195,32.52,24,0,3.15,EG,1694969485
512,mugia,43.1041,-9.2179,19.53,83,100,10.86,ES,1694969557
513,outjo,-20.1167,16.15,28.52,8,2,3.69,NA,1694969557
514,fengrun,39.8333,118.1167,19.79,89,96,1.8,CN,1694969557
515,mweka,-4.85,21.5667,23.72,80,91,1.66,CD,1694969558
516,nicoya,10.1483,-85.452,29.41,71,79,0.96,CR,1694969374
517,ouadda,8.0777,22.4007,20.8,95,99,1.66,CF,1694969559
518,tuensang,26.2833,94.8333,20.86,97,8,1.74,IN,1694969559
519,khash,28.2211,61.2158,24.97,16,6,2.81,IR,1694969559
520,dabat,12.9842,37.765,12.56,86,90,0.99,ET,1694969560
521,coahuayana de hidalgo,18.7,-103.6583,30.22,62,96,0.98,MX,1694969560
522,westwood,42.214,-71.2245,25.42,53,0,4.47,US,1694969561
523,coquimbo,-29.9533,-71.3436,15.85,77,40,6.17,CL,1694969561
524,ubari,26.5921,12.7805,31.47,13,3,4.03,LY,1694969561
525,tamanrasset,22.785,5.5228,34.95,10,0,2.06,DZ,1694969562
526,monteiro,-7.8894,-37.12,33.27,27,7,7.18,BR,1694969562
527,kotlas,61.2611,46.6556,11.7,76,100,2.68,RU,1694969563
528,kourou,5.1552,-52.6478,33.03,54,81,5.72,GF,1694969563
529,weining,26.85,104.2333,15.76,92,93,3.11,CN,1694969564
530,ouesso,1.6136,16.0517,22.01,97,99,0.81,CG,1694969564
531,andergrove,-21.0833,149.1833,19.42,77,5,5.02,AU,1694969564
532,igrim,63.1906,64.4162,11.12,61,92,4.47,RU,1694969565
533,klaksvik,62.2266,-6.589,11.51,91,71,10.06,FO,1694969565
534,fuengirola,36.54,-4.6247,27.14,47,20,5.14,ES,1694969565
535,eirunepe,-6.6603,-69.8736,38.22,32,9,1.15,BR,1694969566
536,ixtapa,20.7,-105.2,30.68,69,94,0.89,MX,1694969566
537,porto novo,6.4965,2.6036,26.9,79,98,4.24,BJ,1694969567
538,cacoal,-11.4386,-61.4472,40.82,17,0,3.29,BR,1694969441
539,pacasmayo,-7.4006,-79.5714,23.03,70,81,5.77,PE,1694969567
540,hankasalmi,62.3833,26.4333,10.17,84,32,5.73,FI,1694969568
541,al ghayzah,16.2079,52.176,28.86,82,97,1.97,YE,1694969568
542,grand-bassam,5.2118,-3.7388,26.98,81,73,3.53,CI,1694969568
543,harstad,68.799,16.5293,8.66,87,97,7.15,NO,1694969569
544,jianshui,23.6363,102.8264,18.61,95,83,0.99,CN,1694969569
545,maxixe,-23.8597,35.3472,21.9,73,75,9.39,MZ,1694969570
546,evanston,42.0411,-87.6901,17.29,88,100,8.23,US,1694969415
547,santa maria da vitoria,-13.3947,-44.1886,36.31,21,15,3.38,BR,1694969570
548,kodinsk,58.6881,99.1844,13.22,70,89,0.76,RU,1694969571
549,shimoda,34.6667,138.95,25.06,88,17,3.55,JP,1694969571
550,akureyri,65.6835,-18.0878,9.96,76,75,4.63,IS,1694969571
551,rio grande,-32.035,-52.0986,29.06,73,86,3.62,BR,1694969421
552,wellington,-41.2866,174.7756,13.81,71,42,5.14,NZ,1694969334
553,paracatu,-17.2222,-46.8747,34.33,25,25,3.73,BR,1694969572
554,reftinskiy,57.0901,61.6769,15.17,69,100,1.42,RU,1694969573
555,tual,-5.6667,132.75,25.14,80,12,8.0,ID,1694969573
556,dunedin,-45.8742,170.5036,11.0,50,40,4.02,NZ,1694969573
557,beichengqu,40.4394,113.1536,15.78,57,29,2.59,CN,1694969574
558,kuta,-8.7233,115.1723,25.0,94,40,3.13,ID,1694969574
559,kargat,55.1956,80.2811,14.28,78,100,1.47,RU,1694969575
